[
  {
    "id": 1,
    "name": "Левый Клуб Сербии",
    "description": "Сообщество русскоязычных левых в Сербии. Регулярные встречи, дискуссии, взаимопомощь.",
    "country": "Сербия",
    "city": "Белград",
    "lat": 44.8125,
    "lng": 20.4612,
    "logo": "logos/default.png",
    "links": [
      { "type": "telegram", "url": "https://t.me/ruleft_serbia" },
      { "type": "instagram", "url": "https://instagram.com/ruleft_serbia/" }
    ]
  },
  {
    "id": 2,
    "name": "Left-wing Community in Yerevan",
    "description": "Левые эмигранты в Ереване. Лево-либертарное сообщество.",
    "country": "Армения",
    "city": "Ереван",
    "lat": 40.1872,
    "lng": 44.5152,
    "logo": "logos/default.png",
    "links": [
      { "type": "telegram", "url": "https://t.me/leftyerevan" }
    ]
  },
  {
    "id": 3,
    "name": "Союз Постсоветских Левых – Берлин",
    "description": "Постсоветские левые (PSL) – организация эмигрантов из стран постсоветского пространства.",
    "country": "Германия",
    "city": "Берлин",
    "lat": 52.5200,
    "lng": 13.4050,
    "logo": "logos/default.png",
    "links": [
      { "type": "website", "url": "https://postsovietleft.org/ru/" },
	  {"type": "telegram", "url": "https://t.me/postsovietleft" },
      { "type": "instagram", "url": "https://instagram.com/postsovietleft" }
    ]
  },
  {
    "id": 4,
    "name": "Союз Постсоветских Левых – Париж",
    "description": "Постсоветские левые (PSL) – организация эмигрантов из стран постсоветского пространства.",
    "country": "Франция",
    "city": "Париж",
    "lat": 48.8575,
    "lng": 2.3514,
    "logo": "logos/default.png",
    "links": [
      { "type": "website", "url": "https://postsovietleft.org/ru/" },
	  {"type": "telegram", "url": "https://t.me/postsovietleft" },
      { "type": "instagram", "url": "https://instagram.com/postsovietleft" }
    ]
  },
  {
    "id": 5,
    "name": "Союз Постсоветских Левых – Кёльн",
    "description": "Постсоветские левые (PSL) – организация эмигрантов из стран постсоветского пространства.",
    "country": "Германия",
    "city": "Кёльн",
    "lat": 50.9375,
    "lng": 6.9603,
    "logo": "logos/default.png",
    "links": [
      { "type": "website", "url": "https://postsovietleft.org/ru/" },
	  {"type": "telegram", "url": "https://t.me/postsovietleft" },
      { "type": "instagram", "url": "https://instagram.com/postsovietleft" }
    ]
  },
  {
    "id": 6,
    "name": "Союз Постсоветских Левых – Гамбург",
    "description": "Постсоветские левые (PSL) – организация эмигрантов из стран постсоветского пространства.",
    "country": "Германия",
    "city": "Гамбург",
    "lat": 53.5488,
    "lng": 9.9872,
    "logo": "logos/default.png",
    "links": [
      { "type": "website", "url": "https://postsovietleft.org/ru/" },
	  {"type": "telegram", "url": "https://t.me/postsovietleft" },
      { "type": "instagram", "url": "https://instagram.com/postsovietleft" }
    ]
  }
]
